[{"name":"Alpheratz","star":677},{"name":"Caph","star":746},{"name":"Algenib","star":1067},{"name":"Ankaa","star":2081},{"name":"Shedir","star":3179},{"name":"Diphda","star":3419},{"name":"Van Maanen 2","star":3829},{"name":"Mirach","star":5447},{"name":"Adhil","star":6411},{"name":"Ruchbah","star":6686},{"name":"Achernar","star":7588},{"name":"Baten Kaitos","star":8645},{"name":"Mothallah","star":8796},{"name":"Mesarthim","star":8832},{"name":"Sheratan","star":8903},{"name":"Alrescha","star":9487},{"name":"Almaak","star":9640},{"name":"Hamal","star":9884},{"name":"Mira","star":10826},{"name":"Polaris","star":11767},{"name":"Azha","star":13701},{"name":"Acamar","star":13847},{"name":"Menkar","star":14135},{"name":"Algol","star":14576},{"name":"Botein","star":14838},{"name":"Zibal","star":15197},{"name":"Mirphak","star":15863},{"name":"Atik","star":17448},{"name":"Celaeno","star":17489},{"name":"Electra","star":17499},{"name":"Taygeta","star":17531},{"name":"Maia","star":17573},{"name":"Asterope","star":17579},{"name":"Merope","star":17608},{"name":"Alcyone","star":17702},{"name":"Atlas","star":17847},{"name":"Pleione","star":17851},{"name":"Zaurak","star":18543},{"name":"Menkib","star":18614},{"name":"Beid","star":19587},{"name":"Keid","star":19849},{"name":"Ain","star":20889},{"name":"Aldebaran","star":21421},{"name":"Cursa","star":23875},{"name":"Kapteyn's Star","star":24186},{"name":"Rigel","star":24436},{"name":"Capella","star":24608},{"name":"Bellatrix","star":25336},{"name":"Alnath","star":25428},{"name":"Nihal","star":25606},{"name":"Mintaka","star":25930},{"name":"Arneb","star":25985},{"name":"Meissa","star":26207},{"name":"Alnilam","star":26311},{"name":"Phact","star":26634},{"name":"Alnitak","star":26727},{"name":"Saiph","star":27366},{"name":"Wazn","star":27628},{"name":"Betelgeuse","star":27989},{"name":"Menkalinan","star":28360},{"name":"Propus","star":29655},{"name":"Red Rectangle","star":30089},{"name":"Furud","star":30122},{"name":"Mirzam","star":30324},{"name":"Tejat","star":30343},{"name":"Canopus","star":30438},{"name":"Alhena","star":31681},{"name":"Mebsuta","star":32246},{"name":"Sirius","star":32349},{"name":"Adhara","star":33579},{"name":"Muliphein","star":34045},{"name":"Mekbuda","star":34088},{"name":"Wezen","star":34444},{"name":"Bernes 135","star":35488},{"name":"Wasat","star":35550},{"name":"Aludra","star":35904},{"name":"Gomeisa","star":36188},{"name":"Luyten's Star","star":36208},{"name":"Castor","star":36850},{"name":"Procyon","star":37279},{"name":"Pollux","star":37826},{"name":"Naos","star":39429},{"name":"Regor","star":39953},{"name":"Tegmine","star":40167},{"name":"Avior","star":41037},{"name":"Muscida","star":41704},{"name":"Asellus Borealis","star":42806},{"name":"Asellus Australis","star":42911},{"name":"Acubens","star":44066},{"name":"Talitha","star":44127},{"name":"Suhail","star":44816},{"name":"Miaplacidus","star":45238},{"name":"Aspidiske","star":45556},{"name":"Alphard","star":46390},{"name":"Alterf","star":46750},{"name":"Subra","star":47508},{"name":"Rasalas","star":48455},{"name":"Regulus","star":49669},{"name":"Adhafera","star":50335},{"name":"Tania Borealis","star":50372},{"name":"Algieba","star":50583},{"name":"Tania Australis","star":50801},{"name":"Alkes","star":53740},{"name":"Merak","star":53910},{"name":"Dubhe","star":54061},{"name":"Zosma","star":54872},{"name":"Chertan","star":54879},{"name":"Alula Australis","star":55203},{"name":"Alula Borealis","star":55219},{"name":"Giausar","star":56211},{"name":"Denebola","star":57632},{"name":"Zavijava","star":57757},{"name":"Phad","star":58001},{"name":"Alchiba","star":59199},{"name":"Megrez","star":59774},{"name":"Gienah","star":59803},{"name":"Zaniah","star":60129},{"name":"Acrux","star":60718},{"name":"Algorab","star":60965},{"name":"Gacrux","star":61084},{"name":"Chara","star":61317},{"name":"Porrima","star":61941},{"name":"Mimosa","star":62434},{"name":"Alioth","star":62956},{"name":"Cor Caroli","star":63125},{"name":"Vindemiatrix","star":63608},{"name":"Mizar","star":65378},{"name":"Spica","star":65474},{"name":"Alcor","star":65477},{"name":"Alkaid","star":67301},{"name":"Muphrid","star":67927},{"name":"Hadar","star":68702},{"name":"Thuban","star":68756},{"name":"Menkent","star":68933},{"name":"Arcturus","star":69673},{"name":"Syrma","star":69701},{"name":"Proxima","star":70890},{"name":"Seginus","star":71075},{"name":"Rigil Kent","star":71683},{"name":"Izar","star":72105},{"name":"Merga","star":72487},{"name":"Kocab","star":72607},{"name":"Zubenelgenubi","star":72622},{"name":"Nekkar","star":73555},{"name":"Zubeneschamali","star":74785},{"name":"Pherkad","star":75097},{"name":"Alkalurops","star":75411},{"name":"Edasich","star":75458},{"name":"Nusakan","star":75695},{"name":"Alphekka","star":76267},{"name":"Unukalhai","star":77070},{"name":"Dschubba","star":78401},{"name":"Acrab","star":78820},{"name":"Marsic","star":79043},{"name":"Yed Prior","star":79593},{"name":"Yed Posterior","star":79882},{"name":"Al Niyat","star":80112},{"name":"Cujam","star":80463},{"name":"Antares","star":80763},{"name":"Kornephoros","star":80816},{"name":"Marfik","star":80883},{"name":"Atria","star":82273},{"name":"Alrakis","star":83608},{"name":"Sabik","star":84012},{"name":"Rasalgethi","star":84345},{"name":"Rastaban","star":85670},{"name":"Maasym","star":85693},{"name":"Lesath","star":85696},{"name":"Yildun","star":85822},{"name":"Shaula","star":85927},{"name":"Rasalhague","star":86032},{"name":"Girtab","star":86228},{"name":"Cebalrai","star":86742},{"name":"Grumium","star":87585},{"name":"Etamin","star":87833},{"name":"Barnard's Star","star":87937},{"name":"Alnasl","star":88635},{"name":"Kaus Media","star":89931},{"name":"Kaus Australis","star":90185},{"name":"Kaus Borealis","star":90496},{"name":"Vega","star":91262},{"name":"Sheliak","star":92420},{"name":"Nunki","star":92855},{"name":"Alya","star":92946},{"name":"Sulafat","star":93194},{"name":"Ascella","star":93506},{"name":"Altais","star":94376},{"name":"Arkab","star":95241},{"name":"Rukbat","star":95347},{"name":"Albireo","star":95947},{"name":"Campbell's Star","star":96295},{"name":"Sham","star":96757},{"name":"Tarazed","star":97278},{"name":"Altair","star":97649},{"name":"Alshain","star":98036},{"name":"Algedi","star":100027},{"name":"Dabih","star":100345},{"name":"Sadr","star":100453},{"name":"Peacock","star":100751},{"name":"Rotanev","star":101769},{"name":"Sualocin","star":101958},{"name":"Deneb","star":102098},{"name":"Gienah","star":102488},{"name":"Albali","star":102618},{"name":"Kitalpha","star":104987},{"name":"Alderamin","star":105199},{"name":"Alfirk","star":106032},{"name":"Sadalsuud","star":106278},{"name":"Nashira","star":106985},{"name":"Azelfafage","star":107136},{"name":"The Garnet Star","star":107259},{"name":"Enif","star":107315},{"name":"Deneb Algedi","star":107556},{"name":"Kurhah","star":108917},{"name":"Sadalmelik","star":109074},{"name":"Alnair","star":109268},{"name":"Biham","star":109427},{"name":"Ancha","star":110003},{"name":"Sadachbia","star":110395},{"name":"Kruger 60","star":110893},{"name":"Situla","star":111710},{"name":"Homan","star":112029},{"name":"Matar","star":112158},{"name":"Babcock's Star","star":112247},{"name":"Sadalbari","star":112748},{"name":"Skat","star":113136},{"name":"Fomalhaut","star":113368},{"name":"Sheat","star":113881},{"name":"Markab","star":113963},{"name":"Errai","star":116727},{"latitude":38.00000000,"longitude":10.00000000,"name":"Andromeda","text":"And|Andromeda|アンドロメダ"},{"latitude":-35.00000000,"longitude":150.00000000,"name":"Antlia","text":"Ant|Antlia|ポンプ"},{"latitude":-76.00000000,"longitude":240.00000000,"name":"Apus","text":"Aps|Apus|ふうちょう"},{"latitude":2.00000000,"longitude":292.50000000,"name":"Aquila","text":"Aql|Aquila|わし"},{"latitude":-13.00000000,"longitude":335.00000000,"name":"Aquarius","text":"Aqr|Aquarius|みずがめ"},{"latitude":-55.00000000,"longitude":257.50000000,"name":"Ara","text":"Ara|Ara|さいだん"},{"latitude":20.00000000,"longitude":37.50000000,"name":"Aries","text":"Ari|Aries|おひつじ"},{"latitude":42.00000000,"longitude":90.00000000,"name":"Auriga","text":"Aur|Auriga|ぎょしゃ"},{"latitude":30.00000000,"longitude":218.75000000,"name":"Bootes","text":"Boo|Bootes|うしかい"},{"latitude":-38.00000000,"longitude":72.50000000,"name":"Caelum","text":"Cae|Caelum|ちょうこくぐ"},{"latitude":70.00000000,"longitude":85.00000000,"name":"Camelopardalis","text":"Cam|Camelopardalis|きりん"},{"latitude":-20.00000000,"longitude":312.50000000,"name":"Capricornus","text":"Cap|Capricornus|やぎ"},{"latitude":-62.00000000,"longitude":130.00000000,"name":"Carina","text":"Car|Carina|りゅうこつ"},{"latitude":60.00000000,"longitude":15.00000000,"name":"Cassiopeia","text":"Cas|Cassiopeia|カシオペヤ"},{"latitude":-47.00000000,"longitude":200.00000000,"name":"Centaurus","text":"Cen|Centaurus|ケンタウルス"},{"latitude":70.00000000,"longitude":330.00000000,"name":"Cepheus","text":"Cep|Cepheus|ケフェウス"},{"latitude":-12.00000000,"longitude":26.25000000,"name":"Cetus","text":"Cet|Cetus|くじら"},{"latitude":-78.00000000,"longitude":160.00000000,"name":"Chamaeleon","text":"Cha|Chamaeleon|カメレオン"},{"latitude":-63.00000000,"longitude":222.50000000,"name":"Circinus","text":"Cir|Circinus|コンパス"},{"latitude":-24.00000000,"longitude":100.00000000,"name":"Canis Major","text":"CMa|Canis Major|おおいぬ"},{"latitude":6.00000000,"longitude":112.50000000,"name":"Canis Minor","text":"CMi|Canis Minor|こいぬ"},{"latitude":20.00000000,"longitude":127.50000000,"name":"Cancer","text":"Cnc|Cancer|かに"},{"latitude":-34.00000000,"longitude":85.00000000,"name":"Columba","text":"Col|Columba|はと"},{"latitude":23.00000000,"longitude":190.00000000,"name":"Coma Berenices","text":"Com|Coma Berenices|かみのけ"},{"latitude":-41.00000000,"longitude":277.50000000,"name":"Corona Australis","text":"CrA|Corona Australis|みなみのかんむり"},{"latitude":30.00000000,"longitude":235.00000000,"name":"Corona Borealis","text":"CrB|Corona Borealis|かんむり"},{"latitude":-15.00000000,"longitude":170.00000000,"name":"Crater","text":"Crt|Crater|コップ"},{"latitude":-60.00000000,"longitude":185.00000000,"name":"Crux","text":"Cru|Crux|みなみじゅうじ"},{"latitude":-18.00000000,"longitude":185.00000000,"name":"Corvus","text":"Crv|Corvus|からす"},{"latitude":40.00000000,"longitude":195.00000000,"name":"Canes Venatici","text":"CVn|Canes Venatici|りょうけん"},{"latitude":43.00000000,"longitude":307.50000000,"name":"Cygnus","text":"Cyg|Cygnus|はくちょう"},{"latitude":12.00000000,"longitude":310.00000000,"name":"Delphinus","text":"Del|Delphinus|いるか"},{"latitude":-60.00000000,"longitude":75.00000000,"name":"Dorado","text":"Dor|Dorado|かじき"},{"latitude":60.00000000,"longitude":255.00000000,"name":"Draco","text":"Dra|Draco|りゅう"},{"latitude":6.00000000,"longitude":317.50000000,"name":"Equuleus","text":"Equ|Equuleus|こうま"},{"latitude":-30.00000000,"longitude":57.50000000,"name":"Eridanus","text":"Eri|Eridanus|エリダヌス"},{"latitude":-33.00000000,"longitude":37.50000000,"name":"Fornax","text":"For|Fornax|ろ"},{"latitude":22.00000000,"longitude":105.00000000,"name":"Gemini","text":"Gem|Gemini|ふたご"},{"latitude":-47.00000000,"longitude":335.00000000,"name":"Grus","text":"Gru|Grus|つる"},{"latitude":27.00000000,"longitude":257.50000000,"name":"Hercules","text":"Her|Hercules|ヘルクレス"},{"latitude":-52.00000000,"longitude":50.00000000,"name":"Horologium","text":"Hor|Horologium|とけい"},{"latitude":-20.00000000,"longitude":157.50000000,"name":"Hydra","text":"Hya|Hydra|うみへび"},{"latitude":-70.00000000,"longitude":40.00000000,"name":"Hydrus","text":"Hyi|Hydrus|みずへび"},{"latitude":-58.00000000,"longitude":320.00000000,"name":"Indus","text":"Ind|Indus|インディアン"},{"latitude":43.00000000,"longitude":336.25000000,"name":"Lacerta","text":"Lac|Lacerta|とかげ"},{"latitude":15.00000000,"longitude":157.50000000,"name":"Leo","text":"Leo|Leo|しし"},{"latitude":-20.00000000,"longitude":81.25000000,"name":"Lepus","text":"Lep|Lepus|うさぎ"},{"latitude":-14.00000000,"longitude":227.50000000,"name":"Libra","text":"Lib|Libra|てんびん"},{"latitude":33.00000000,"longitude":155.00000000,"name":"Leo Minor","text":"LMi|Leo Minor|こじし"},{"latitude":-40.00000000,"longitude":225.00000000,"name":"Lupus","text":"Lup|Lupus|おおかみ"},{"latitude":45.00000000,"longitude":117.50000000,"name":"Lynx","text":"Lyn|Lynx|やまねこ"},{"latitude":36.00000000,"longitude":281.25000000,"name":"Lyra","text":"Lyr|Lyra|こと"},{"latitude":-77.00000000,"longitude":85.00000000,"name":"Mensa","text":"Men|Mensa|テーブルさん"},{"latitude":-37.00000000,"longitude":312.50000000,"name":"Microscopium","text":"Mic|Microscopium|けんびきょう"},{"latitude":-3.00000000,"longitude":105.00000000,"name":"Monoceros","text":"Mon|Monoceros|いっかくじゅう"},{"latitude":-70.00000000,"longitude":187.50000000,"name":"Musca","text":"Mus|Musca|はえ"},{"latitude":-50.00000000,"longitude":240.00000000,"name":"Norma","text":"Nor|Norma|じょうぎ"},{"latitude":-87.00000000,"longitude":315.00000000,"name":"Octans","text":"Oct|Octans|はちぶんぎ"},{"latitude":-5.00000000,"longitude":257.50000000,"name":"Ophiuchus","text":"Oph|Ophiuchus|へびつかい"},{"latitude":3.00000000,"longitude":80.00000000,"name":"Orion","text":"Ori|Orion|オリオン"},{"latitude":-65.00000000,"longitude":287.50000000,"name":"Pavo","text":"Pav|Pavo|くじゃく"},{"latitude":17.00000000,"longitude":337.50000000,"name":"Pegasus","text":"Peg|Pegasus|ペガスス"},{"latitude":42.00000000,"longitude":50.00000000,"name":"Perseus","text":"Per|Perseus|ペルセウス"},{"latitude":-48.00000000,"longitude":15.00000000,"name":"Phoenix","text":"Phe|Phoenix|ほうおう"},{"latitude":-52.00000000,"longitude":82.50000000,"name":"Pictor","text":"Pic|Pictor|がか"},{"latitude":-32.00000000,"longitude":332.50000000,"name":"Piscis Austrinus","text":"PsA|Piscis Austrinus|みなみのうお"},{"latitude":10.00000000,"longitude":5.00000000,"name":"Pisces","text":"Psc|Pisces|うお"},{"latitude":-32.00000000,"longitude":115.00000000,"name":"Puppis","text":"Pup|Puppis|とも"},{"latitude":-28.00000000,"longitude":132.50000000,"name":"Pyxis","text":"Pyx|Pyxis|らしんばん"},{"latitude":-63.00000000,"longitude":57.50000000,"name":"Reticulum","text":"Ret|Reticulum|レチクル"},{"latitude":-35.00000000,"longitude":7.50000000,"name":"Sculptor","text":"Scl|Sculptor|ちょうこくしつ"},{"latitude":-26.00000000,"longitude":247.50000000,"name":"Scorpius","text":"Sco|Scorpius|さそり"},{"latitude":-10.00000000,"longitude":278.75000000,"name":"Scutum","text":"Sct|Scutum|たて"},{"latitude":10.00000000,"longitude":233.75000000,"name":"Serpens(Caput)","text":"Ser|Serpens(Caput)|へび(頭)"},{"latitude":-5.00000000,"longitude":270.00000000,"name":"Serpens(Cauda)","text":"Ser|Serpens(Cauda)|へび(尾)"},{"latitude":-1.00000000,"longitude":152.50000000,"name":"Sextans","text":"Sex|Sextans|ろくぶんぎ"},{"latitude":18.00000000,"longitude":295.00000000,"name":"Sagitta","text":"Sge|Sagitta|や"},{"latitude":-25.00000000,"longitude":285.00000000,"name":"Sagittarius","text":"Sgr|Sagittarius|いて"},{"latitude":18.00000000,"longitude":67.50000000,"name":"Taurus","text":"Tau|Taurus|おうし"},{"latitude":-52.00000000,"longitude":285.00000000,"name":"Telescopium","text":"Tel|Telescopium|ぼうえんきょう"},{"latitude":-65.00000000,"longitude":235.00000000,"name":"Triangulum Australe","text":"TrA|Triangulum Australe|みなみのさんかく"},{"latitude":32.00000000,"longitude":30.00000000,"name":"Triangulum","text":"Tri|Triangulum|さんかく"},{"latitude":-68.00000000,"longitude":356.25000000,"name":"Tucana","text":"Tuc|Tucana|きょしちょう"},{"latitude":58.00000000,"longitude":165.00000000,"name":"Ursa Major","text":"UMa|Ursa Major|おおぐま"},{"latitude":78.00000000,"longitude":235.00000000,"name":"Ursa Minor","text":"UMi|Ursa Minor|こぐま"},{"latitude":-45.00000000,"longitude":142.50000000,"name":"Vela","text":"Vel|Vela|ほ"},{"latitude":-2.00000000,"longitude":200.00000000,"name":"Virgo","text":"Vir|Virgo|おとめ"},{"latitude":-69.00000000,"longitude":115.00000000,"name":"Volans","text":"Vol|Volans|とびうお"},{"latitude":25.00000000,"longitude":302.50000000,"name":"Vulpecula","text":"Vul|Vulpecula|こぎつね"}]