[{"name":"Alpheratz","star":677},{"name":"Caph","star":746},{"name":"Algenib","star":1067},{"name":"Ankaa","star":2081},{"name":"Shedir","star":3179},{"name":"Diphda","star":3419},{"name":"Van Maanen 2","star":3829},{"name":"Mirach","star":5447},{"name":"Adhil","star":6411},{"name":"Ruchbah","star":6686},{"name":"Achernar","star":7588},{"name":"Baten Kaitos","star":8645},{"name":"Mothallah","star":8796},{"name":"Mesarthim","star":8832},{"name":"Sheratan","star":8903},{"name":"Alrescha","star":9487},{"name":"Almaak","star":9640},{"name":"Hamal","star":9884},{"name":"Mira","star":10826},{"name":"Polaris","star":11767},{"name":"Azha","star":13701},{"name":"Acamar","star":13847},{"name":"Menkar","star":14135},{"name":"Algol","star":14576},{"name":"Botein","star":14838},{"name":"Zibal","star":15197},{"name":"Mirphak","star":15863},{"name":"Atik","star":17448},{"name":"Celaeno","star":17489},{"name":"Electra","star":17499},{"name":"Taygeta","star":17531},{"name":"Maia","star":17573},{"name":"Asterope","star":17579},{"name":"Merope","star":17608},{"name":"Alcyone","star":17702},{"name":"Atlas","star":17847},{"name":"Pleione","star":17851},{"name":"Zaurak","star":18543},{"name":"Menkib","star":18614},{"name":"Beid","star":19587},{"name":"Keid","star":19849},{"name":"Ain","star":20889},{"name":"Aldebaran","star":21421},{"name":"Cursa","star":23875},{"name":"Kapteyn's Star","star":24186},{"name":"Rigel","star":24436},{"name":"Capella","star":24608},{"name":"Bellatrix","star":25336},{"name":"Alnath","star":25428},{"name":"Nihal","star":25606},{"name":"Mintaka","star":25930},{"name":"Arneb","star":25985},{"name":"Meissa","star":26207},{"name":"Alnilam","star":26311},{"name":"Phact","star":26634},{"name":"Alnitak","star":26727},{"name":"Saiph","star":27366},{"name":"Wazn","star":27628},{"name":"Betelgeuse","star":27989},{"name":"Menkalinan","star":28360},{"name":"Propus","star":29655},{"name":"Red Rectangle","star":30089},{"name":"Furud","star":30122},{"name":"Mirzam","star":30324},{"name":"Tejat","star":30343},{"name":"Canopus","star":30438},{"name":"Alhena","star":31681},{"name":"Mebsuta","star":32246},{"name":"Sirius","star":32349},{"name":"Adhara","star":33579},{"name":"Muliphein","star":34045},{"name":"Mekbuda","star":34088},{"name":"Wezen","star":34444},{"name":"Bernes 135","star":35488},{"name":"Wasat","star":35550},{"name":"Aludra","star":35904},{"name":"Gomeisa","star":36188},{"name":"Luyten's Star","star":36208},{"name":"Castor","star":36850},{"name":"Procyon","star":37279},{"name":"Pollux","star":37826},{"name":"Naos","star":39429},{"name":"Regor","star":39953},{"name":"Tegmine","star":40167},{"name":"Avior","star":41037},{"name":"Muscida","star":41704},{"name":"Asellus Borealis","star":42806},{"name":"Asellus Australis","star":42911},{"name":"Acubens","star":44066},{"name":"Talitha","star":44127},{"name":"Suhail","star":44816},{"name":"Miaplacidus","star":45238},{"name":"Aspidiske","star":45556},{"name":"Alphard","star":46390},{"name":"Alterf","star":46750},{"name":"Subra","star":47508},{"name":"Rasalas","star":48455},{"name":"Regulus","star":49669},{"name":"Adhafera","star":50335},{"name":"Tania Borealis","star":50372},{"name":"Algieba","star":50583},{"name":"Tania Australis","star":50801},{"name":"Alkes","star":53740},{"name":"Merak","star":53910},{"name":"Dubhe","star":54061},{"name":"Zosma","star":54872},{"name":"Chertan","star":54879},{"name":"Alula Australis","star":55203},{"name":"Alula Borealis","star":55219},{"name":"Giausar","star":56211},{"name":"Denebola","star":57632},{"name":"Zavijava","star":57757},{"name":"Phad","star":58001},{"name":"Alchiba","star":59199},{"name":"Megrez","star":59774},{"name":"Gienah","star":59803},{"name":"Zaniah","star":60129},{"name":"Acrux","star":60718},{"name":"Algorab","star":60965},{"name":"Gacrux","star":61084},{"name":"Chara","star":61317},{"name":"Porrima","star":61941},{"name":"Mimosa","star":62434},{"name":"Alioth","star":62956},{"name":"Cor Caroli","star":63125},{"name":"Vindemiatrix","star":63608},{"name":"Mizar","star":65378},{"name":"Spica","star":65474},{"name":"Alcor","star":65477},{"name":"Alkaid","star":67301},{"name":"Muphrid","star":67927},{"name":"Hadar","star":68702},{"name":"Thuban","star":68756},{"name":"Menkent","star":68933},{"name":"Arcturus","star":69673},{"name":"Syrma","star":69701},{"name":"Proxima","star":70890},{"name":"Seginus","star":71075},{"name":"Rigil Kent","star":71683},{"name":"Izar","star":72105},{"name":"Merga","star":72487},{"name":"Kocab","star":72607},{"name":"Zubenelgenubi","star":72622},{"name":"Nekkar","star":73555},{"name":"Zubeneschamali","star":74785},{"name":"Pherkad","star":75097},{"name":"Alkalurops","star":75411},{"name":"Edasich","star":75458},{"name":"Nusakan","star":75695},{"name":"Alphekka","star":76267},{"name":"Unukalhai","star":77070},{"name":"Dschubba","star":78401},{"name":"Acrab","star":78820},{"name":"Marsic","star":79043},{"name":"Yed Prior","star":79593},{"name":"Yed Posterior","star":79882},{"name":"Al Niyat","star":80112},{"name":"Cujam","star":80463},{"name":"Antares","star":80763},{"name":"Kornephoros","star":80816},{"name":"Marfik","star":80883},{"name":"Atria","star":82273},{"name":"Alrakis","star":83608},{"name":"Sabik","star":84012},{"name":"Rasalgethi","star":84345},{"name":"Rastaban","star":85670},{"name":"Maasym","star":85693},{"name":"Lesath","star":85696},{"name":"Yildun","star":85822},{"name":"Shaula","star":85927},{"name":"Rasalhague","star":86032},{"name":"Girtab","star":86228},{"name":"Cebalrai","star":86742},{"name":"Grumium","star":87585},{"name":"Etamin","star":87833},{"name":"Barnard's Star","star":87937},{"name":"Alnasl","star":88635},{"name":"Kaus Media","star":89931},{"name":"Kaus Australis","star":90185},{"name":"Kaus Borealis","star":90496},{"name":"Vega","star":91262},{"name":"Sheliak","star":92420},{"name":"Nunki","star":92855},{"name":"Alya","star":92946},{"name":"Sulafat","star":93194},{"name":"Ascella","star":93506},{"name":"Altais","star":94376},{"name":"Arkab","star":95241},{"name":"Rukbat","star":95347},{"name":"Albireo","star":95947},{"name":"Campbell's Star","star":96295},{"name":"Sham","star":96757},{"name":"Tarazed","star":97278},{"name":"Altair","star":97649},{"name":"Alshain","star":98036},{"name":"Algedi","star":100027},{"name":"Dabih","star":100345},{"name":"Sadr","star":100453},{"name":"Peacock","star":100751},{"name":"Rotanev","star":101769},{"name":"Sualocin","star":101958},{"name":"Deneb","star":102098},{"name":"Gienah","star":102488},{"name":"Albali","star":102618},{"name":"Kitalpha","star":104987},{"name":"Alderamin","star":105199},{"name":"Alfirk","star":106032},{"name":"Sadalsuud","star":106278},{"name":"Nashira","star":106985},{"name":"Azelfafage","star":107136},{"name":"The Garnet Star","star":107259},{"name":"Enif","star":107315},{"name":"Deneb Algedi","star":107556},{"name":"Kurhah","star":108917},{"name":"Sadalmelik","star":109074},{"name":"Alnair","star":109268},{"name":"Biham","star":109427},{"name":"Ancha","star":110003},{"name":"Sadachbia","star":110395},{"name":"Kruger 60","star":110893},{"name":"Situla","star":111710},{"name":"Homan","star":112029},{"name":"Matar","star":112158},{"name":"Babcock's Star","star":112247},{"name":"Sadalbari","star":112748},{"name":"Skat","star":113136},{"name":"Fomalhaut","star":113368},{"name":"Sheat","star":113881},{"name":"Markab","star":113963},{"name":"Errai","star":116727},{"latitude":0.66322512,"longitude":0.17453293,"name":"Andromeda","text":"And|Andromeda|アンドロメダ"},{"latitude":-0.61086524,"longitude":2.61799388,"name":"Antlia","text":"Ant|Antlia|ポンプ"},{"latitude":-1.32645023,"longitude":4.18879020,"name":"Apus","text":"Aps|Apus|ふうちょう"},{"latitude":0.03490659,"longitude":5.10508806,"name":"Aquila","text":"Aql|Aquila|わし"},{"latitude":-0.22689280,"longitude":5.84685299,"name":"Aquarius","text":"Aqr|Aquarius|みずがめ"},{"latitude":-0.95993109,"longitude":4.49422282,"name":"Ara","text":"Ara|Ara|さいだん"},{"latitude":0.34906585,"longitude":0.65449847,"name":"Aries","text":"Ari|Aries|おひつじ"},{"latitude":0.73303829,"longitude":1.57079633,"name":"Auriga","text":"Aur|Auriga|ぎょしゃ"},{"latitude":0.52359878,"longitude":3.81790774,"name":"Bootes","text":"Boo|Bootes|うしかい"},{"latitude":-0.66322512,"longitude":1.26536371,"name":"Caelum","text":"Cae|Caelum|ちょうこくぐ"},{"latitude":1.22173048,"longitude":1.48352986,"name":"Camelopardalis","text":"Cam|Camelopardalis|きりん"},{"latitude":-0.34906585,"longitude":5.45415391,"name":"Capricornus","text":"Cap|Capricornus|やぎ"},{"latitude":-1.08210414,"longitude":2.26892803,"name":"Carina","text":"Car|Carina|りゅうこつ"},{"latitude":1.04719755,"longitude":0.26179939,"name":"Cassiopeia","text":"Cas|Cassiopeia|カシオペヤ"},{"latitude":-0.82030475,"longitude":3.49065850,"name":"Centaurus","text":"Cen|Centaurus|ケンタウルス"},{"latitude":1.22173048,"longitude":5.75958653,"name":"Cepheus","text":"Cep|Cepheus|ケフェウス"},{"latitude":-0.20943951,"longitude":0.45814893,"name":"Cetus","text":"Cet|Cetus|くじら"},{"latitude":-1.36135682,"longitude":2.79252680,"name":"Chamaeleon","text":"Cha|Chamaeleon|カメレオン"},{"latitude":-1.09955743,"longitude":3.88335759,"name":"Circinus","text":"Cir|Circinus|コンパス"},{"latitude":-0.41887902,"longitude":1.74532925,"name":"Canis Major","text":"CMa|Canis Major|おおいぬ"},{"latitude":0.10471976,"longitude":1.96349541,"name":"Canis Minor","text":"CMi|Canis Minor|こいぬ"},{"latitude":0.34906585,"longitude":2.22529480,"name":"Cancer","text":"Cnc|Cancer|かに"},{"latitude":-0.59341195,"longitude":1.48352986,"name":"Columba","text":"Col|Columba|はと"},{"latitude":0.40142573,"longitude":3.31612558,"name":"Coma Berenices","text":"Com|Coma Berenices|かみのけ"},{"latitude":-0.71558499,"longitude":4.84328867,"name":"Corona Australis","text":"CrA|Corona Australis|みなみのかんむり"},{"latitude":0.52359878,"longitude":4.10152374,"name":"Corona Borealis","text":"CrB|Corona Borealis|かんむり"},{"latitude":-0.26179939,"longitude":2.96705973,"name":"Crater","text":"Crt|Crater|コップ"},{"latitude":-1.04719755,"longitude":3.22885912,"name":"Crux","text":"Cru|Crux|みなみじゅうじ"},{"latitude":-0.31415927,"longitude":3.22885912,"name":"Corvus","text":"Crv|Corvus|からす"},{"latitude":0.69813170,"longitude":3.40339204,"name":"Canes Venatici","text":"CVn|Canes Venatici|りょうけん"},{"latitude":0.75049158,"longitude":5.36688745,"name":"Cygnus","text":"Cyg|Cygnus|はくちょう"},{"latitude":0.20943951,"longitude":5.41052068,"name":"Delphinus","text":"Del|Delphinus|いるか"},{"latitude":-1.04719755,"longitude":1.30899694,"name":"Dorado","text":"Dor|Dorado|かじき"},{"latitude":1.04719755,"longitude":4.45058959,"name":"Draco","text":"Dra|Draco|りゅう"},{"latitude":0.10471976,"longitude":5.54142038,"name":"Equuleus","text":"Equ|Equuleus|こうま"},{"latitude":-0.52359878,"longitude":1.00356432,"name":"Eridanus","text":"Eri|Eridanus|エリダヌス"},{"latitude":-0.57595865,"longitude":0.65449847,"name":"Fornax","text":"For|Fornax|ろ"},{"latitude":0.38397244,"longitude":1.83259571,"name":"Gemini","text":"Gem|Gemini|ふたご"},{"latitude":-0.82030475,"longitude":5.84685299,"name":"Grus","text":"Gru|Grus|つる"},{"latitude":0.47123890,"longitude":4.49422282,"name":"Hercules","text":"Her|Hercules|ヘルクレス"},{"latitude":-0.90757121,"longitude":0.87266463,"name":"Horologium","text":"Hor|Horologium|とけい"},{"latitude":-0.34906585,"longitude":2.74889357,"name":"Hydra","text":"Hya|Hydra|うみへび"},{"latitude":-1.22173048,"longitude":0.69813170,"name":"Hydrus","text":"Hyi|Hydrus|みずへび"},{"latitude":-1.01229097,"longitude":5.58505361,"name":"Indus","text":"Ind|Indus|インディアン"},{"latitude":0.75049158,"longitude":5.86866961,"name":"Lacerta","text":"Lac|Lacerta|とかげ"},{"latitude":0.26179939,"longitude":2.74889357,"name":"Leo","text":"Leo|Leo|しし"},{"latitude":-0.34906585,"longitude":1.41808002,"name":"Lepus","text":"Lep|Lepus|うさぎ"},{"latitude":-0.24434610,"longitude":3.97062405,"name":"Libra","text":"Lib|Libra|てんびん"},{"latitude":0.57595865,"longitude":2.70526034,"name":"Leo Minor","text":"LMi|Leo Minor|こじし"},{"latitude":-0.69813170,"longitude":3.92699082,"name":"Lupus","text":"Lup|Lupus|おおかみ"},{"latitude":0.78539816,"longitude":2.05076187,"name":"Lynx","text":"Lyn|Lynx|やまねこ"},{"latitude":0.62831853,"longitude":4.90873852,"name":"Lyra","text":"Lyr|Lyra|こと"},{"latitude":-1.34390352,"longitude":1.48352986,"name":"Mensa","text":"Men|Mensa|テーブルさん"},{"latitude":-0.64577182,"longitude":5.45415391,"name":"Microscopium","text":"Mic|Microscopium|けんびきょう"},{"latitude":-0.05235988,"longitude":1.83259571,"name":"Monoceros","text":"Mon|Monoceros|いっかくじゅう"},{"latitude":-1.22173048,"longitude":3.27249235,"name":"Musca","text":"Mus|Musca|はえ"},{"latitude":-0.87266463,"longitude":4.18879020,"name":"Norma","text":"Nor|Norma|じょうぎ"},{"latitude":-1.51843645,"longitude":5.49778714,"name":"Octans","text":"Oct|Octans|はちぶんぎ"},{"latitude":-0.08726646,"longitude":4.49422282,"name":"Ophiuchus","text":"Oph|Ophiuchus|へびつかい"},{"latitude":0.05235988,"longitude":1.39626340,"name":"Orion","text":"Ori|Orion|オリオン"},{"latitude":-1.13446401,"longitude":5.01782160,"name":"Pavo","text":"Pav|Pavo|くじゃく"},{"latitude":0.29670597,"longitude":5.89048623,"name":"Pegasus","text":"Peg|Pegasus|ペガスス"},{"latitude":0.73303829,"longitude":0.87266463,"name":"Perseus","text":"Per|Perseus|ペルセウス"},{"latitude":-0.83775804,"longitude":0.26179939,"name":"Phoenix","text":"Phe|Phoenix|ほうおう"},{"latitude":-0.90757121,"longitude":1.43989663,"name":"Pictor","text":"Pic|Pictor|がか"},{"latitude":-0.55850536,"longitude":5.80321976,"name":"Piscis Austrinus","text":"PsA|Piscis Austrinus|みなみのうお"},{"latitude":0.17453293,"longitude":0.08726646,"name":"Pisces","text":"Psc|Pisces|うお"},{"latitude":-0.55850536,"longitude":2.00712864,"name":"Puppis","text":"Pup|Puppis|とも"},{"latitude":-0.48869219,"longitude":2.31256126,"name":"Pyxis","text":"Pyx|Pyxis|らしんばん"},{"latitude":-1.09955743,"longitude":1.00356432,"name":"Reticulum","text":"Ret|Reticulum|レチクル"},{"latitude":-0.61086524,"longitude":0.13089969,"name":"Sculptor","text":"Scl|Sculptor|ちょうこくしつ"},{"latitude":-0.45378561,"longitude":4.31968990,"name":"Scorpius","text":"Sco|Scorpius|さそり"},{"latitude":-0.17453293,"longitude":4.86510529,"name":"Scutum","text":"Sct|Scutum|たて"},{"latitude":0.17453293,"longitude":4.07970713,"name":"Serpens(Caput)","text":"Ser|Serpens(Caput)|へび(頭)"},{"latitude":-0.08726646,"longitude":4.71238898,"name":"Serpens(Cauda)","text":"Ser|Serpens(Cauda)|へび(尾)"},{"latitude":-0.01745329,"longitude":2.66162711,"name":"Sextans","text":"Sex|Sextans|ろくぶんぎ"},{"latitude":0.31415927,"longitude":5.14872129,"name":"Sagitta","text":"Sge|Sagitta|や"},{"latitude":-0.43633231,"longitude":4.97418837,"name":"Sagittarius","text":"Sgr|Sagittarius|いて"},{"latitude":0.31415927,"longitude":1.17809725,"name":"Taurus","text":"Tau|Taurus|おうし"},{"latitude":-0.90757121,"longitude":4.97418837,"name":"Telescopium","text":"Tel|Telescopium|ぼうえんきょう"},{"latitude":-1.13446401,"longitude":4.10152374,"name":"Triangulum Australe","text":"TrA|Triangulum Australe|みなみのさんかく"},{"latitude":0.55850536,"longitude":0.52359878,"name":"Triangulum","text":"Tri|Triangulum|さんかく"},{"latitude":-1.18682389,"longitude":6.21773546,"name":"Tucana","text":"Tuc|Tucana|きょしちょう"},{"latitude":1.01229097,"longitude":2.87979327,"name":"Ursa Major","text":"UMa|Ursa Major|おおぐま"},{"latitude":1.36135682,"longitude":4.10152374,"name":"Ursa Minor","text":"UMi|Ursa Minor|こぐま"},{"latitude":-0.78539816,"longitude":2.48709418,"name":"Vela","text":"Vel|Vela|ほ"},{"latitude":-0.03490659,"longitude":3.49065850,"name":"Virgo","text":"Vir|Virgo|おとめ"},{"latitude":-1.20427718,"longitude":2.00712864,"name":"Volans","text":"Vol|Volans|とびうお"},{"latitude":0.43633231,"longitude":5.27962099,"name":"Vulpecula","text":"Vul|Vulpecula|こぎつね"}]